{
  "_comment": "Curated paved, cycling-relevant Colorado mountain passes. Elevations in feet. Coordinates web-verified May 2026 (primarily Wikipedia 'List of mountain passes in Colorado'; Pikes Peak / Mount Evans summits and Squaw/Mestaa'Ehehe Pass from supplementary sources). Pass Hunter uses a generous detection radius (PASS_RADIUS_M in js/strava.js) so a road crossing still registers. Tweak any lat/lng/ele here and the tracker re-detects on next load. id must be unique and stable (it keys saved discovery data).",
  "passes": [
    { "id": "mount-evans", "name": "Mount Evans (Mount Blue Sky) Summit", "lat": 39.58830, "lng": -105.64380, "ele": 14130, "road": "CO 5" },
    { "id": "pikes-peak", "name": "Pikes Peak Summit", "lat": 38.84054, "lng": -105.04442, "ele": 14115, "road": "Pikes Peak Hwy" },
    { "id": "trail-ridge", "name": "Trail Ridge Road (High Point)", "lat": 40.41700, "lng": -105.74000, "ele": 12183, "road": "US 34" },
    { "id": "cottonwood", "name": "Cottonwood Pass", "lat": 38.82777, "lng": -106.40919, "ele": 12126, "road": "CR 209 / CR 306" },
    { "id": "independence", "name": "Independence Pass", "lat": 39.10888, "lng": -106.56392, "ele": 12095, "road": "CO 82" },
    { "id": "loveland", "name": "Loveland Pass", "lat": 39.66360, "lng": -105.87918, "ele": 11992, "road": "US 6" },
    { "id": "hoosier", "name": "Hoosier Pass", "lat": 39.36166, "lng": -106.06252, "ele": 11541, "road": "CO 9" },
    { "id": "slumgullion", "name": "Slumgullion Pass", "lat": 37.98755, "lng": -107.21342, "ele": 11530, "road": "CO 149" },
    { "id": "fremont", "name": "Fremont Pass", "lat": 39.36638, "lng": -106.18669, "ele": 11318, "road": "CO 91" },
    { "id": "berthoud", "name": "Berthoud Pass", "lat": 39.79832, "lng": -105.77778, "ele": 11315, "road": "US 40" },
    { "id": "monarch", "name": "Monarch Pass", "lat": 38.49666, "lng": -106.32558, "ele": 11312, "road": "US 50" },
    { "id": "juniper", "name": "Juniper Pass", "lat": 39.67196, "lng": -105.56472, "ele": 11020, "road": "CO 103" },
    { "id": "red-mountain", "name": "Red Mountain Pass", "lat": 37.89888, "lng": -107.71201, "ele": 11018, "road": "US 550" },
    { "id": "molas", "name": "Molas Pass", "lat": 37.73778, "lng": -107.69812, "ele": 10910, "road": "US 550" },
    { "id": "spring-creek", "name": "Spring Creek Pass", "lat": 37.94083, "lng": -107.15922, "ele": 10901, "road": "CO 149" },
    { "id": "wolf-creek", "name": "Wolf Creek Pass", "lat": 37.48318, "lng": -106.80207, "ele": 10857, "road": "US 160" },
    { "id": "milner", "name": "Milner Pass (Continental Divide)", "lat": 40.41971, "lng": -105.81140, "ele": 10759, "road": "US 34" },
    { "id": "vail", "name": "Vail Pass", "lat": 39.53054, "lng": -106.21725, "ele": 10666, "road": "I-70 / bike path" },
    { "id": "coal-bank", "name": "Coal Bank Pass", "lat": 37.70055, "lng": -107.77701, "ele": 10640, "road": "US 550" },
    { "id": "tennessee", "name": "Tennessee Pass", "lat": 39.36210, "lng": -106.31043, "ele": 10424, "road": "US 24" },
    { "id": "cameron", "name": "Cameron Pass", "lat": 40.52082, "lng": -105.89251, "ele": 10276, "road": "CO 14" },
    { "id": "la-manga", "name": "La Manga Pass", "lat": 37.07751, "lng": -106.38614, "ele": 10230, "road": "CO 17" },
    { "id": "lizard-head", "name": "Lizard Head Pass", "lat": 37.81111, "lng": -107.90618, "ele": 10222, "road": "CO 145" },
    { "id": "cumbres", "name": "Cumbres Pass", "lat": 37.02057, "lng": -106.45003, "ele": 10022, "road": "CO 17" },
    { "id": "kenosha", "name": "Kenosha Pass", "lat": 39.41276, "lng": -105.75748, "ele": 10001, "road": "US 285" },
    { "id": "cuchara", "name": "Cucharas Pass", "lat": 37.32029, "lng": -105.07361, "ele": 9941, "road": "CO 12" },
    { "id": "squaw", "name": "Mestaa'Ėhehe Pass (Squaw Pass)", "lat": 39.67994, "lng": -105.47387, "ele": 9790, "road": "CO 103" },
    { "id": "mcclure", "name": "McClure Pass", "lat": 39.12888, "lng": -107.28394, "ele": 8755, "road": "CO 133" },
    { "id": "muddy", "name": "Muddy Pass", "lat": 40.37904, "lng": -106.57901, "ele": 8710, "road": "US 40" }
  ]
}
